사용본거지 시군구,읍면동 (행정동),current_ev_count,total_vehicles,future_ev_count,adjusted_ev_demand,increase_amount,lat,lon,행정동만,search_address,grid_id
서울특별시 강남구,강남구 개포4동 ,79.0,8552.0,4276.0,4355.0,4276.0,37.482864637708445,127.07520286222606,개포4동,개포4동,GRID_018_067
서울특별시 강남구,강남구 논현2동 ,111.0,10196.0,5098.0,5209.0,5098.0,37.51588973774217,127.02023846047928,논현2동,논현2동,GRID_025_057
서울특별시 강남구,강남구 대치4동 ,3216.0,13749.0,6874.5,10090.5,6874.5,37.4981828923879,127.07796227681962,대치4동,대치4동,GRID_021_067
서울특별시 강남구,강남구 도곡2동 ,151.0,13523.0,6761.5,6912.5,6761.5,37.492649668932174,127.0535135087495,도곡2동,도곡2동,GRID_020_063
서울특별시 강남구,강남구 수서동 ,58.0,5209.0,2604.5,2662.5,2604.5,37.48693289059973,127.10854157896772,수서동,수서동,GRID_019_072
서울특별시 강남구,강남구 압구정동 ,122.0,12258.0,6129.0,6251.0,6129.0,37.53278464590568,127.02733718819263,압구정동,압구정동,GRID_029_058
서울특별시 강남구,강남구 일원2동 ,117.0,6205.0,3102.5,3219.5,3102.5,37.482864637708445,127.07520286222606,일원2동,일원2동,GRID_018_067
서울특별시 강남구,강남구 일원본동 ,69.0,8307.0,4153.5,4222.5,4153.5,37.48693289059973,127.10854157896772,일원본동,일원본동,GRID_019_072
서울특별시 강남구,강남구 청담동 ,167.0,11873.0,5936.5,6103.5,5936.5,37.52284437668651,127.03953579045114,청담동,청담동,GRID_027_060
서울특별시 강동구,강동구 강일동 ,161.0,12721.0,6360.5,6521.5,6360.5,37.57970769332631,127.17628471333407,강일동,강일동,GRID_039_085
서울특별시 강동구,강동구 길동 ,207.0,15918.0,7959.0,8166.0,7959.0,37.53973285688434,127.14769557447565,길동,길동,GRID_031_079
서울특별시 강북구,강북구 미아동 ,33.0,4767.0,2383.5,2416.5,2383.5,37.618878642514446,127.03643270244766,미아동,미아동,GRID_048_060
서울특별시 강북구,강북구 송천동 ,33.0,5809.0,2904.5,2937.5,2904.5,37.618878642514446,127.03643270244766,송천동,송천동,GRID_048_060
서울특별시 강북구,강북구 우이동 ,55.0,5875.0,2937.5,2992.5,2937.5,37.661822432457015,127.01386651529648,우이동,우이동,GRID_058_056
서울특별시 강북구,강북구 인수동 ,80.0,7514.0,3757.0,3837.0,3757.0,37.637354382902714,127.02162701163576,인수동,인수동,GRID_052_057
서울특별시 강서구,강서구 공항동 ,202.0,11520.0,5760.0,5962.0,5760.0,37.56457246586312,126.81627161703646,공항동,공항동,GRID_036_020
서울특별시 관악구,관악구 미성동 ,48.0,8366.0,4183.0,4231.0,4183.0,37.481848696091205,126.93357748697147,미성동,미성동,GRID_018_041
서울특별시 관악구,관악구 청룡동 ,107.0,7592.0,3796.0,3903.0,3796.0,37.491694806160595,126.9596011537373,청룡동,청룡동,GRID_020_046
서울특별시 광진구,광진구 광장동 ,71.0,11677.0,5838.5,5909.5,5838.5,37.5569395282115,127.11290815574748,광장동,광장동,GRID_034_073
서울특별시 광진구,광진구 군자동 ,36.0,5160.0,2580.0,2616.0,2580.0,37.55547317196105,127.07820053971705,군자동,군자동,GRID_034_067
서울특별시 광진구,광진구 능동 ,22.0,3050.0,1525.0,1547.0,1525.0,37.552307971260234,127.08215322285284,능동,능동,GRID_033_068
서울특별시 노원구,노원구 상계9동 ,28.0,5793.0,2896.5,2924.5,2896.5,37.682298026698724,127.07731091633795,상계9동,상계9동,GRID_062_067
서울특별시 동대문구,동대문구 용신동 ,92.0,10209.0,5104.5,5196.5,5104.5,37.57846126088922,127.02731840164242,용신동,용신동,GRID_039_058
서울특별시 동대문구,동대문구 청량리동 ,34.0,5086.0,2543.0,2577.0,2543.0,37.58782049091827,127.05250916032895,청량리동,청량리동,GRID_041_062
서울특별시 동작구,동작구 상도2동 ,60.0,8192.0,4096.0,4156.0,4096.0,37.49879591496499,126.95071228629939,상도2동,상도2동,GRID_021_044
서울특별시 동작구,동작구 상도3동 ,40.0,5688.0,2844.0,2884.0,2844.0,37.498877848371215,126.95056872116727,상도3동,상도3동,GRID_021_044
서울특별시 마포구,마포구 노고산동 ,0.0,1.0,0.5,0.5,0.5,37.5562477681518,126.94275915736607,노고산동,노고산동,GRID_034_043
서울특별시 마포구,마포구 연남동 ,40.0,4080.0,2040.0,2080.0,2040.0,37.5645037742722,126.92666224676788,연남동,연남동,GRID_036_040
서울특별시 마포구,마포구 염리동 ,91.0,5236.0,2618.0,2709.0,2618.0,37.55487109073978,126.94832224372428,염리동,염리동,GRID_034_044
서울특별시 서초구,서초구 반포3동 ,68.0,7828.0,3914.0,3982.0,3914.0,37.5171759390049,127.01678340652336,반포3동,반포3동,GRID_026_056
서울특별시 서초구,서초구 방배본동 ,61.0,7910.0,3955.0,4016.0,3955.0,37.49419167046039,126.99330411178794,방배본동,방배본동,GRID_020_052
서울특별시 서초구,서초구 서초4동 ,118.0,11805.0,5902.5,6020.5,5902.5,37.4903168762327,127.00257824773777,서초4동,서초4동,GRID_020_054
서울특별시 서초구,서초구 양재2동 ,225.0,12982.0,6491.0,6716.0,6491.0,37.48460191342369,127.03782485044496,양재2동,양재2동,GRID_018_060
서울특별시 성동구,성동구 금호4가동 ,49.0,4525.0,2262.5,2311.5,2262.5,37.5467669873146,127.03100125702782,금호4가동,금호4가동,GRID_032_059
서울특별시 성동구,성동구 마장동 ,150.0,8577.0,4288.5,4438.5,4288.5,37.56501506092208,127.0460495216723,마장동,마장동,GRID_036_061
서울특별시 성동구,성동구 사근동 ,27.0,2250.0,1125.0,1152.0,1125.0,37.55427321421323,127.04966749117773,사근동,사근동,GRID_034_062
서울특별시 성동구,성동구 왕십리도선동 ,76.0,8066.0,4033.0,4109.0,4033.0,37.5645738873564,127.03600421089155,왕십리도선동,왕십리도선동,GRID_036_060
서울특별시 성동구,성동구 용답동 ,63.0,7795.0,3897.5,3960.5,3897.5,37.56508529403621,127.0547186503125,용답동,용답동,GRID_036_063
서울특별시 성동구,성동구 응봉동 ,23.0,4547.0,2273.5,2296.5,2273.5,37.554111763835394,127.03449048376658,응봉동,응봉동,GRID_034_059
서울특별시 성북구,성북구 동선동 ,16.0,3419.0,1709.5,1725.5,1709.5,37.59280012322389,127.01733193126722,동선동,동선동,GRID_042_056
서울특별시 성북구,성북구 보문동 ,47.0,4588.0,2294.0,2341.0,2294.0,37.58840682654897,127.01866364364312,보문동,보문동,GRID_041_056
서울특별시 성북구,성북구 삼선동 ,71.0,5773.0,2886.5,2957.5,2886.5,37.58754111272928,127.00435006510023,삼선동,삼선동,GRID_041_054
서울특별시 성북구,성북구 종암동 ,75.0,10601.0,5300.5,5375.5,5300.5,37.59811161837365,127.04017168519957,종암동,종암동,GRID_044_060
서울특별시 송파구,송파구 가락본동 ,64.0,12586.0,6293.0,6357.0,6293.0,37.503053205606335,127.12306444104215,가락본동,가락본동,GRID_022_075
서울특별시 송파구,송파구 잠실6동 ,105.0,12281.0,6140.5,6245.5,6140.5,37.52186432541907,127.09908335863184,잠실6동,잠실6동,GRID_027_071
서울특별시 송파구,송파구 잠실본동 ,82.0,8851.0,4425.5,4507.5,4425.5,37.51832852686033,127.07306668545499,잠실본동,잠실본동,GRID_026_066
서울특별시 영등포구,영등포구 당산2동 ,113.0,12907.0,6453.5,6566.5,6453.5,37.537969012291086,126.904486748542,당산2동,당산2동,GRID_030_036
서울특별시 영등포구,영등포구 도림동 ,40.0,5691.0,2845.5,2885.5,2845.5,37.51208434213281,126.90913411058844,도림동,도림동,GRID_024_037
서울특별시 영등포구,영등포구 문래동 ,110.0,13985.0,6992.5,7102.5,6992.5,37.5147947255265,126.90383515311925,문래동,문래동,GRID_025_036
서울특별시 영등포구,영등포구 여의동 ,1537.0,20629.0,10314.5,11851.5,10314.5,37.530291720051196,126.9154011681411,여의동,여의동,GRID_028_038
서울특별시 영등포구,영등포구 영등포동 ,115.0,10571.0,5285.5,5400.5,5285.5,37.52074542623261,126.9010871095523,영등포동,영등포동,GRID_026_035
서울특별시 용산구,용산구 남영동 ,19.0,2660.0,1330.0,1349.0,1330.0,37.54520253739478,126.97282578102224,남영동,남영동,GRID_032_048
서울특별시 용산구,용산구 보광동 ,16.0,3072.0,1536.0,1552.0,1536.0,37.527012372028175,127.00243713889924,보광동,보광동,GRID_028_054
서울특별시 용산구,용산구 용산2가동 ,16.0,2124.0,1062.0,1078.0,1062.0,37.54512826052897,126.98026653885492,용산2가동,용산2가동,GRID_032_050
서울특별시 용산구,용산구 원효로1동 ,86.0,6336.0,3168.0,3254.0,3168.0,37.54183221138807,126.96918325237795,원효로1동,원효로1동,GRID_031_048
서울특별시 용산구,용산구 후암동 ,41.0,4014.0,2007.0,2048.0,2007.0,37.55272025063661,126.9778451098974,후암동,후암동,GRID_033_049
서울특별시 은평구,은평구 구산동 ,62.0,9339.0,4669.5,4731.5,4669.5,37.6112085676516,126.9168148963698,구산동,구산동,GRID_046_038
서울특별시 은평구,은평구 녹번동 ,119.0,10447.0,5223.5,5342.5,5223.5,37.61002119991778,126.94002766887336,녹번동,녹번동,GRID_046_042
서울특별시 은평구,은평구 대조동 ,27.0,6064.0,3032.0,3059.0,3032.0,37.612668495706124,126.92712011447476,대조동,대조동,GRID_047_040
서울특별시 은평구,은평구 수색동 ,33.0,4695.0,2347.5,2380.5,2347.5,37.587315490265894,126.89989784456819,수색동,수색동,GRID_041_035
서울특별시 은평구,은평구 진관동 ,219.0,17867.0,8933.5,9152.5,8933.5,37.64911736388726,126.93021496854509,진관동,진관동,GRID_055_041
서울특별시 종로구,종로구 종로1.2.3.4가동 ,132.0,6317.0,3158.5,3290.5,3158.5,37.5706080022686,126.97806848882198,종로1.2.3.4가동,종로1.2.3.4가동,GRID_037_049
서울특별시 종로구,종로구 평창동 ,90.0,6629.0,3314.5,3404.5,3314.5,37.61520151942234,126.97862567050345,평창동,평창동,GRID_047_049
서울특별시 중구,중구 명동 ,220.0,7790.0,3895.0,4115.0,3895.0,37.56492158991193,126.98619225644353,명동,명동,GRID_036_051
서울특별시 중구,중구 소공동 ,305.0,4174.0,2087.0,2392.0,2087.0,37.56474835644447,126.98140914048318,소공동,소공동,GRID_036_050
서울특별시 중구,중구 을지로3.4.5가동 ,0.0,42.0,21.0,21.0,21.0,37.56715084334995,126.99225368919421,을지로3.4.5가동,을지로3.4.5가동,GRID_037_052
서울특별시 관악구,관악구 신원동 ,18.0,3312.0,1656.0,1674.0,1656.0,37.669903065331575,126.8918028628718,신원동,신원동,GRID_059_034
서울특별시 금천구,금천구 시흥2동 ,44.0,7155.0,3577.5,3621.5,3577.5,37.45366982266252,126.81515401531999,시흥2동,시흥2동,GRID_011_020
서울특별시 금천구,금천구 시흥3동 ,36.0,4388.0,2194.0,2230.0,2194.0,37.45359312360528,126.81486795677242,시흥3동,시흥3동,GRID_011_020
서울특별시 금천구,금천구 시흥5동 ,48.0,5395.0,2697.5,2745.5,2697.5,37.454128803741554,126.81528862030791,시흥5동,시흥5동,GRID_012_020
서울특별시 중구,중구 다산동 ,39.0,3352.0,1676.0,1715.0,1676.0,37.59519374102092,127.17845675367818,다산동,다산동,GRID_043_085
서울특별시 강남구,강남구 개포1동 ,31.0,3875.0,1937.5,1968.5,1937.5,37.482864637708445,127.07520286222606,개포1동,개포동,GRID_018_067
서울특별시 강남구,강남구 논현1동 ,82.0,10388.0,5194.0,5276.0,5194.0,37.51588973774217,127.02023846047928,논현1동,논현동,GRID_025_057
서울특별시 강남구,강남구 대치1동 ,5339.0,17827.0,8913.5,14252.5,8913.5,37.4981828923879,127.07796227681962,대치1동,대치동,GRID_021_067
서울특별시 강남구,강남구 대치2동 ,1579.0,15041.0,7520.5,9099.5,7520.5,37.4981828923879,127.07796227681962,대치2동,대치동,GRID_021_067
서울특별시 강남구,강남구 도곡1동 ,124.0,8961.0,4480.5,4604.5,4480.5,37.492649668932174,127.0535135087495,도곡1동,도곡동,GRID_020_063
서울특별시 강남구,강남구 역삼1동 ,677.0,21032.0,10516.0,11193.0,10516.0,37.50452746291375,127.02557815572708,역삼1동,역삼동,GRID_023_058
서울특별시 강남구,강남구 일원1동 ,58.0,4607.0,2303.5,2361.5,2303.5,37.495698243659014,127.09531907332219,일원1동,일원동,GRID_021_070
서울특별시 강동구,강동구 길1동 ,0.0,1.0,0.5,0.5,0.5,37.53973285688434,127.14769557447565,길1동,길동,GRID_031_079
서울특별시 강동구,강동구 둔촌1동 ,6.0,545.0,272.5,278.5,272.5,37.53157041865655,127.14934213106513,둔촌1동,둔촌동,GRID_029_080
서울특별시 강동구,강동구 둔촌2동 ,53.0,7998.0,3999.0,4052.0,3999.0,37.53157041865655,127.14934213106513,둔촌2동,둔촌동,GRID_029_080
서울특별시 강동구,강동구 명일1동 ,70.0,8341.0,4170.5,4240.5,4170.5,37.554637100616915,127.14905759412578,명일1동,명일동,GRID_034_080
서울특별시 강동구,강동구 명일2동 ,40.0,5792.0,2896.0,2936.0,2896.0,37.554637100616915,127.14905759412578,명일2동,명일동,GRID_034_080
서울특별시 강동구,강동구 암사1동 ,67.0,10427.0,5213.5,5280.5,5213.5,37.56201235093675,127.14538289295653,암사1동,암사동,GRID_036_079
서울특별시 강동구,강동구 암사2동 ,46.0,5015.0,2507.5,2553.5,2507.5,37.56201235093675,127.14538289295653,암사2동,암사동,GRID_036_079
서울특별시 강동구,강동구 암사3동 ,42.0,6304.0,3152.0,3194.0,3152.0,37.56201235093675,127.14538289295653,암사3동,암사동,GRID_036_079
서울특별시 강동구,강동구 천호1동 ,88.0,8730.0,4365.0,4453.0,4365.0,37.55043987794787,127.13975116412061,천호1동,천호동,GRID_033_078
서울특별시 강동구,강동구 천호2동 ,56.0,9412.0,4706.0,4762.0,4706.0,37.55043987794787,127.13975116412061,천호2동,천호동,GRID_033_078
서울특별시 강동구,강동구 천호3동 ,66.0,7608.0,3804.0,3870.0,3804.0,37.55043987794787,127.13975116412061,천호3동,천호동,GRID_033_078
서울특별시 강북구,강북구 번1동 ,33.0,4781.0,2390.5,2423.5,2390.5,37.62740186507586,127.04684800738237,번1동,번동,GRID_050_061
서울특별시 강북구,강북구 번2동 ,35.0,3621.0,1810.5,1845.5,1810.5,37.62740186507586,127.04684800738237,번2동,번동,GRID_050_061
서울특별시 강북구,강북구 번3동 ,81.0,4478.0,2239.0,2320.0,2239.0,37.62740186507586,127.04684800738237,번3동,번동,GRID_050_061
서울특별시 강북구,강북구 수유1동 ,28.0,5595.0,2797.5,2825.5,2797.5,37.637354382902714,127.02162701163576,수유1동,수유동,GRID_052_057
서울특별시 강북구,강북구 수유2동 ,29.0,5368.0,2684.0,2713.0,2684.0,37.637354382902714,127.02162701163576,수유2동,수유동,GRID_052_057
서울특별시 강북구,강북구 수유3동 ,48.0,4999.0,2499.5,2547.5,2499.5,37.637354382902714,127.02162701163576,수유3동,수유동,GRID_052_057
서울특별시 강서구,강서구 등촌1동 ,78.0,9259.0,4629.5,4707.5,4629.5,37.5647759412992,126.84780003999936,등촌1동,등촌동,GRID_036_026
서울특별시 강서구,강서구 등촌2동 ,39.0,6690.0,3345.0,3384.0,3345.0,37.5647759412992,126.84780003999936,등촌2동,등촌동,GRID_036_026
서울특별시 강서구,강서구 등촌3동 ,61.0,9117.0,4558.5,4619.5,4558.5,37.5647759412992,126.84780003999936,등촌3동,등촌동,GRID_036_026
서울특별시 강서구,강서구 발산1동 ,205.0,13981.0,6990.5,7195.5,6990.5,37.6770379980144,126.77642104550256,발산1동,발산동,GRID_061_013
서울특별시 강서구,강서구 방화1동 ,137.0,14972.0,7486.0,7623.0,7486.0,37.5795640340804,126.82008388587903,방화1동,방화동,GRID_039_021
서울특별시 강서구,강서구 방화2동 ,130.0,9349.0,4674.5,4804.5,4674.5,37.5795640340804,126.82008388587903,방화2동,방화동,GRID_039_021
서울특별시 강서구,강서구 방화3동 ,47.0,7336.0,3668.0,3715.0,3668.0,37.5795640340804,126.82008388587903,방화3동,방화동,GRID_039_021
서울특별시 강서구,강서구 화곡1동 ,93.0,15999.0,7999.5,8092.5,7999.5,37.541106633329136,126.84606054945846,화곡1동,화곡동,GRID_031_026
서울특별시 강서구,강서구 화곡2동 ,25.0,4832.0,2416.0,2441.0,2416.0,37.541106633329136,126.84606054945846,화곡2동,화곡동,GRID_031_026
서울특별시 강서구,강서구 화곡3동 ,27.0,6431.0,3215.5,3242.5,3215.5,37.541106633329136,126.84606054945846,화곡3동,화곡동,GRID_031_026
서울특별시 강서구,강서구 화곡4동 ,30.0,5844.0,2922.0,2952.0,2922.0,37.541106633329136,126.84606054945846,화곡4동,화곡동,GRID_031_026
서울특별시 강서구,강서구 화곡6동 ,52.0,7847.0,3923.5,3975.5,3923.5,37.541106633329136,126.84606054945846,화곡6동,화곡동,GRID_031_026
서울특별시 강서구,강서구 화곡8동 ,51.0,6098.0,3049.0,3100.0,3049.0,37.541106633329136,126.84606054945846,화곡8동,화곡동,GRID_031_026
서울특별시 광진구,광진구 구의1동 ,46.0,6686.0,3343.0,3389.0,3343.0,37.555153902337,127.10271867594955,구의1동,구의동,GRID_034_071
서울특별시 광진구,광진구 구의2동 ,49.0,7279.0,3639.5,3688.5,3639.5,37.555153902337,127.10271867594955,구의2동,구의동,GRID_034_071
서울특별시 광진구,광진구 구의3동 ,57.0,9168.0,4584.0,4641.0,4584.0,37.555153902337,127.10271867594955,구의3동,구의동,GRID_034_071
서울특별시 광진구,광진구 중곡1동 ,31.0,4771.0,2385.5,2416.5,2385.5,37.55771225002785,127.09296606474068,중곡1동,중곡동,GRID_035_070
서울특별시 광진구,광진구 중곡2동 ,26.0,5212.0,2606.0,2632.0,2606.0,37.55771225002785,127.09296606474068,중곡2동,중곡동,GRID_035_070
서울특별시 광진구,광진구 중곡3동 ,18.0,4020.0,2010.0,2028.0,2010.0,37.55771225002785,127.09296606474068,중곡3동,중곡동,GRID_035_070
서울특별시 광진구,광진구 중곡4동 ,58.0,7429.0,3714.5,3772.5,3714.5,37.55771225002785,127.09296606474068,중곡4동,중곡동,GRID_035_070
서울특별시 구로구,구로구 개봉1동 ,95.0,11065.0,5532.5,5627.5,5532.5,37.50509063959733,126.84441537077778,개봉1동,개봉동,GRID_023_025
서울특별시 구로구,구로구 개봉2동 ,44.0,9241.0,4620.5,4664.5,4620.5,37.50509063959733,126.84441537077778,개봉2동,개봉동,GRID_023_025
서울특별시 구로구,구로구 개봉3동 ,17.0,5738.0,2869.0,2886.0,2869.0,37.50509063959733,126.84441537077778,개봉3동,개봉동,GRID_023_025
서울특별시 구로구,구로구 고척1동 ,52.0,7843.0,3921.5,3973.5,3921.5,37.50848294073556,126.85901347680206,고척1동,고척동,GRID_024_028
서울특별시 구로구,구로구 고척2동 ,48.0,8676.0,4338.0,4386.0,4338.0,37.50848294073556,126.85901347680206,고척2동,고척동,GRID_024_028
서울특별시 금천구,금천구 독산1동 ,145.0,17953.0,8976.5,9121.5,8976.5,37.46927679684322,126.88852055305702,독산1동,독산동,GRID_015_033
서울특별시 금천구,금천구 독산2동 ,28.0,5237.0,2618.5,2646.5,2618.5,37.46927679684322,126.88852055305702,독산2동,독산동,GRID_015_033
서울특별시 금천구,금천구 독산3동 ,36.0,7600.0,3800.0,3836.0,3800.0,37.46927679684322,126.88852055305702,독산3동,독산동,GRID_015_033
서울특별시 금천구,금천구 독산4동 ,25.0,4510.0,2255.0,2280.0,2255.0,37.46927679684322,126.88852055305702,독산4동,독산동,GRID_015_033
서울특별시 노원구,노원구 공릉1동 ,83.0,11031.0,5515.5,5598.5,5515.5,37.62017477448039,127.1040886663352,공릉1동,공릉동,GRID_048_072
서울특별시 노원구,노원구 상계10동 ,27.0,5362.0,2681.0,2708.0,2681.0,37.682298026698724,127.07731091633795,상계10동,상계동,GRID_062_067
서울특별시 노원구,노원구 상계1동 ,154.0,13791.0,6895.5,7049.5,6895.5,37.682298026698724,127.07731091633795,상계1동,상계동,GRID_062_067
서울특별시 노원구,노원구 상계2동 ,58.0,6041.0,3020.5,3078.5,3020.5,37.682298026698724,127.07731091633795,상계2동,상계동,GRID_062_067
서울특별시 노원구,노원구 상계5동 ,31.0,5909.0,2954.5,2985.5,2954.5,37.682298026698724,127.07731091633795,상계5동,상계동,GRID_062_067
서울특별시 노원구,노원구 상계8동 ,34.0,6503.0,3251.5,3285.5,3251.5,37.682298026698724,127.07731091633795,상계8동,상계동,GRID_062_067
서울특별시 노원구,노원구 중계1동 ,44.0,8457.0,4228.5,4272.5,4228.5,37.65231082500911,127.08940291798538,중계1동,중계동,GRID_056_069
서울특별시 노원구,노원구 하계1동 ,44.0,7494.0,3747.0,3791.0,3747.0,37.640426118659974,127.08068989940071,하계1동,하계동,GRID_053_067
서울특별시 도봉구,도봉구 도봉1동 ,60.0,6637.0,3318.5,3378.5,3318.5,37.6922580098848,127.04778300675152,도봉1동,도봉동,GRID_064_062
서울특별시 도봉구,도봉구 도봉2동 ,56.0,8455.0,4227.5,4283.5,4227.5,37.6922580098848,127.04778300675152,도봉2동,도봉동,GRID_064_062
서울특별시 도봉구,도봉구 방학1동 ,153.0,10234.0,5117.0,5270.0,5117.0,37.67030686831275,127.0366473514369,방학1동,방학동,GRID_060_060
서울특별시 도봉구,도봉구 방학2동 ,33.0,4841.0,2420.5,2453.5,2420.5,37.67030686831275,127.0366473514369,방학2동,방학동,GRID_060_060
서울특별시 도봉구,도봉구 방학3동 ,54.0,8372.0,4186.0,4240.0,4186.0,37.67030686831275,127.0366473514369,방학3동,방학동,GRID_060_060
서울특별시 도봉구,도봉구 쌍문1동 ,54.0,6407.0,3203.5,3257.5,3203.5,37.6606913966956,127.03744320448564,쌍문1동,쌍문동,GRID_057_060
서울특별시 도봉구,도봉구 쌍문2동 ,30.0,4939.0,2469.5,2499.5,2469.5,37.6606913966956,127.03744320448564,쌍문2동,쌍문동,GRID_057_060
서울특별시 도봉구,도봉구 쌍문3동 ,14.0,3916.0,1958.0,1972.0,1958.0,37.6606913966956,127.03744320448564,쌍문3동,쌍문동,GRID_057_060
서울특별시 도봉구,도봉구 쌍문4동 ,20.0,5445.0,2722.5,2742.5,2722.5,37.6606913966956,127.03744320448564,쌍문4동,쌍문동,GRID_057_060
서울특별시 동대문구,동대문구 답십리1동 ,85.0,9608.0,4804.0,4889.0,4804.0,37.57639964089368,127.06672039880166,답십리1동,답십리동,GRID_039_065
서울특별시 동대문구,동대문구 답십리2동 ,73.0,8629.0,4314.5,4387.5,4314.5,37.57639964089368,127.06672039880166,답십리2동,답십리동,GRID_039_065
서울특별시 동대문구,동대문구 이문1동 ,23.0,4081.0,2040.5,2063.5,2040.5,37.60623221919697,127.07029392990512,이문1동,이문동,GRID_045_066
서울특별시 동대문구,동대문구 이문2동 ,28.0,5343.0,2671.5,2699.5,2671.5,37.60623221919697,127.07029392990512,이문2동,이문동,GRID_045_066
서울특별시 동대문구,동대문구 전농1동 ,68.0,7491.0,3745.5,3813.5,3745.5,37.58148732380361,127.06847673960769,전농1동,전농동,GRID_040_065
서울특별시 동대문구,동대문구 전농2동 ,40.0,5449.0,2724.5,2764.5,2724.5,37.58148732380361,127.06847673960769,전농2동,전농동,GRID_040_065
서울특별시 동대문구,동대문구 휘경1동 ,20.0,3932.0,1966.0,1986.0,1966.0,37.59380259825335,127.06932404618014,휘경1동,휘경동,GRID_043_065
서울특별시 동대문구,동대문구 휘경2동 ,52.0,6353.0,3176.5,3228.5,3176.5,37.59380259825335,127.06932404618014,휘경2동,휘경동,GRID_043_065
서울특별시 동작구,동작구 노량진1동 ,78.0,8681.0,4340.5,4418.5,4340.5,37.51610011140972,126.94590542983997,노량진1동,노량진동,GRID_025_043
서울특별시 동작구,동작구 노량진2동 ,22.0,2370.0,1185.0,1207.0,1185.0,37.51610011140972,126.94590542983997,노량진2동,노량진동,GRID_025_043
서울특별시 동작구,동작구 사당1동 ,41.0,5473.0,2736.5,2777.5,2736.5,37.47945512691658,126.96979816151266,사당1동,사당동,GRID_017_048
서울특별시 동작구,동작구 사당2동 ,61.0,8292.0,4146.0,4207.0,4146.0,37.47945512691658,126.96979816151266,사당2동,사당동,GRID_017_048
서울특별시 동작구,동작구 사당3동 ,54.0,7093.0,3546.5,3600.5,3546.5,37.47945512691658,126.96979816151266,사당3동,사당동,GRID_017_048
서울특별시 동작구,동작구 사당4동 ,30.0,3513.0,1756.5,1786.5,1756.5,37.47945512691658,126.96979816151266,사당4동,사당동,GRID_017_048
서울특별시 동작구,동작구 사당5동 ,28.0,4203.0,2101.5,2129.5,2101.5,37.47945512691658,126.96979816151266,사당5동,사당동,GRID_017_048
서울특별시 동작구,동작구 신대방1동 ,71.0,7495.0,3747.5,3818.5,3747.5,37.49825179232164,126.92888278682139,신대방1동,신대방동,GRID_021_040
서울특별시 동작구,동작구 신대방2동 ,53.0,6373.0,3186.5,3239.5,3186.5,37.49825179232164,126.92888278682139,신대방2동,신대방동,GRID_021_040
서울특별시 마포구,마포구 도화1동 ,0.0,1.0,0.5,0.5,0.5,37.5411598068907,126.95428544799444,도화1동,도화동,GRID_031_045
서울특별시 마포구,마포구 도화2동 ,0.0,0.0,0.0,0.0,0.0,37.5411598068907,126.95428544799444,도화2동,도화동,GRID_031_045
서울특별시 마포구,마포구 망원1동 ,66.0,5704.0,2852.0,2918.0,2852.0,37.556077587090044,126.89559398972315,망원1동,망원동,GRID_034_034
서울특별시 마포구,마포구 망원2동 ,40.0,5346.0,2673.0,2713.0,2673.0,37.556077587090044,126.89559398972315,망원2동,망원동,GRID_034_034
서울특별시 서대문구,서대문구 남가좌1동 ,45.0,5397.0,2698.5,2743.5,2698.5,37.58447480304251,126.92304091874152,남가좌1동,남가좌동,GRID_040_039
서울특별시 서대문구,서대문구 남가좌2동 ,60.0,8492.0,4246.0,4306.0,4246.0,37.58447480304251,126.92304091874152,남가좌2동,남가좌동,GRID_040_039
서울특별시 서대문구,서대문구 북가좌1동 ,72.0,7375.0,3687.5,3759.5,3687.5,37.58208861390999,126.92032386730546,북가좌1동,북가좌동,GRID_040_039
서울특별시 서대문구,서대문구 북가좌2동 ,64.0,8515.0,4257.5,4321.5,4257.5,37.58208861390999,126.92032386730546,북가좌2동,북가좌동,GRID_040_039
서울특별시 서대문구,서대문구 홍은1동 ,54.0,7100.0,3550.0,3604.0,3550.0,37.59905469063733,126.9559092462836,홍은1동,홍은동,GRID_044_045
서울특별시 서대문구,서대문구 홍은2동 ,64.0,7363.0,3681.5,3745.5,3681.5,37.59905469063733,126.9559092462836,홍은2동,홍은동,GRID_044_045
서울특별시 서초구,서초구 반포1동 ,164.0,11760.0,5880.0,6044.0,5880.0,37.507061438087234,126.99796884648808,반포1동,반포동,GRID_023_053
서울특별시 서초구,서초구 반포2동 ,149.0,5827.0,2913.5,3062.5,2913.5,37.507061438087234,126.99796884648808,반포2동,반포동,GRID_023_053
서울특별시 서초구,서초구 반포4동 ,78.0,7042.0,3521.0,3599.0,3521.0,37.507061438087234,126.99796884648808,반포4동,반포동,GRID_023_053
서울특별시 서초구,서초구 방배1동 ,67.0,7283.0,3641.5,3708.5,3641.5,37.49419167046039,126.99330411178794,방배1동,방배동,GRID_020_052
서울특별시 서초구,서초구 방배2동 ,48.0,5992.0,2996.0,3044.0,2996.0,37.49419167046039,126.99330411178794,방배2동,방배동,GRID_020_052
서울특별시 서초구,서초구 방배3동 ,43.0,7024.0,3512.0,3555.0,3512.0,37.49419167046039,126.99330411178794,방배3동,방배동,GRID_020_052
서울특별시 서초구,서초구 방배4동 ,72.0,8080.0,4040.0,4112.0,4040.0,37.49419167046039,126.99330411178794,방배4동,방배동,GRID_020_052
서울특별시 서초구,서초구 서초1동 ,987.0,17110.0,8555.0,9542.0,8555.0,37.4903168762327,127.00257824773777,서초1동,서초동,GRID_020_054
서울특별시 서초구,서초구 서초2동 ,122.0,10137.0,5068.5,5190.5,5068.5,37.4903168762327,127.00257824773777,서초2동,서초동,GRID_020_054
서울특별시 성동구,성동구 왕십리2동 ,28.0,4485.0,2242.5,2270.5,2242.5,37.57045608156956,127.02583808101915,왕십리2동,왕십리동,GRID_037_058
서울특별시 성동구,성동구 행당1동 ,87.0,4222.0,2111.0,2198.0,2111.0,37.562745462196006,127.03891584766276,행당1동,행당동,GRID_036_060
서울특별시 성동구,성동구 행당2동 ,38.0,6717.0,3358.5,3396.5,3358.5,37.562745462196006,127.03891584766276,행당2동,행당동,GRID_036_060
서울특별시 성북구,성북구 길음1동 ,80.0,10746.0,5373.0,5453.0,5373.0,37.60669970304173,127.02739638819574,길음1동,길음동,GRID_045_058
서울특별시 성북구,성북구 길음2동 ,65.0,6447.0,3223.5,3288.5,3223.5,37.60669970304173,127.02739638819574,길음2동,길음동,GRID_045_058
서울특별시 성북구,성북구 돈암1동 ,27.0,4161.0,2080.5,2107.5,2080.5,37.60323504984718,127.02619806364726,돈암1동,돈암동,GRID_045_058
서울특별시 성북구,성북구 돈암2동 ,66.0,7574.0,3787.0,3853.0,3787.0,37.60323504984718,127.02619806364726,돈암2동,돈암동,GRID_045_058
서울특별시 성북구,성북구 장위1동 ,53.0,6535.0,3267.5,3320.5,3267.5,37.61329125385373,127.0614302100012,장위1동,장위동,GRID_047_064
서울특별시 성북구,성북구 장위2동 ,24.0,3290.0,1645.0,1669.0,1645.0,37.61329125385373,127.0614302100012,장위2동,장위동,GRID_047_064
서울특별시 성북구,성북구 장위3동 ,46.0,5084.0,2542.0,2588.0,2542.0,37.61329125385373,127.0614302100012,장위3동,장위동,GRID_047_064
서울특별시 성북구,성북구 정릉1동 ,120.0,6152.0,3076.0,3196.0,3076.0,37.60558677395031,127.01812312233142,정릉1동,정릉동,GRID_045_056
서울특별시 성북구,성북구 정릉2동 ,54.0,6441.0,3220.5,3274.5,3220.5,37.60558677395031,127.01812312233142,정릉2동,정릉동,GRID_045_056
서울특별시 성북구,성북구 정릉3동 ,21.0,3615.0,1807.5,1828.5,1807.5,37.60558677395031,127.01812312233142,정릉3동,정릉동,GRID_045_056
서울특별시 성북구,성북구 정릉4동 ,66.0,7238.0,3619.0,3685.0,3619.0,37.60558677395031,127.01812312233142,정릉4동,정릉동,GRID_045_056
서울특별시 송파구,송파구 가락1동 ,160.0,11406.0,5703.0,5863.0,5703.0,37.503053205606335,127.12306444104215,가락1동,가락동,GRID_022_075
서울특별시 송파구,송파구 가락2동 ,82.0,10758.0,5379.0,5461.0,5379.0,37.503053205606335,127.12306444104215,가락2동,가락동,GRID_022_075
서울특별시 송파구,송파구 거여1동 ,28.0,4079.0,2039.5,2067.5,2039.5,37.498868369210136,127.14493569404942,거여1동,거여동,GRID_021_079
서울특별시 송파구,송파구 방이1동 ,58.0,6856.0,3428.0,3486.0,3428.0,37.5123369726211,127.11358052217005,방이1동,방이동,GRID_024_073
서울특별시 송파구,송파구 방이2동 ,81.0,7838.0,3919.0,4000.0,3919.0,37.5123369726211,127.11358052217005,방이2동,방이동,GRID_024_073
서울특별시 송파구,송파구 송파1동 ,53.0,7725.0,3862.5,3915.5,3862.5,37.50653466782674,127.10926937343834,송파1동,송파동,GRID_023_073
서울특별시 송파구,송파구 잠실2동 ,134.0,12195.0,6097.5,6231.5,6097.5,37.51832852686033,127.07306668545499,잠실2동,잠실동,GRID_026_066
서울특별시 송파구,송파구 잠실3동 ,113.0,12045.0,6022.5,6135.5,6022.5,37.51832852686033,127.07306668545499,잠실3동,잠실동,GRID_026_066
서울특별시 송파구,송파구 잠실4동 ,120.0,10216.0,5108.0,5228.0,5108.0,37.51832852686033,127.07306668545499,잠실4동,잠실동,GRID_026_066
서울특별시 송파구,송파구 잠실7동 ,29.0,3642.0,1821.0,1850.0,1821.0,37.51832852686033,127.07306668545499,잠실7동,잠실동,GRID_026_066
서울특별시 송파구,송파구 풍납1동 ,37.0,4284.0,2142.0,2179.0,2142.0,37.540843026342074,127.11868453843826,풍납1동,풍납동,GRID_031_074
서울특별시 양천구,양천구 신정1동 ,142.0,8242.0,4121.0,4263.0,4121.0,37.545529445342254,126.92986251169265,신정1동,신정동,GRID_032_041
서울특별시 양천구,양천구 신정2동 ,61.0,6277.0,3138.5,3199.5,3138.5,37.545529445342254,126.92986251169265,신정2동,신정동,GRID_032_041
서울특별시 양천구,양천구 신정3동 ,104.0,16268.0,8134.0,8238.0,8134.0,37.545529445342254,126.92986251169265,신정3동,신정동,GRID_032_041
서울특별시 양천구,양천구 신정4동 ,60.0,9028.0,4514.0,4574.0,4514.0,37.545529445342254,126.92986251169265,신정4동,신정동,GRID_032_041
서울특별시 양천구,양천구 신정6동 ,77.0,8833.0,4416.5,4493.5,4416.5,37.545529445342254,126.92986251169265,신정6동,신정동,GRID_032_041
서울특별시 영등포구,영등포구 양평1동 ,48.0,9745.0,4872.5,4920.5,4872.5,37.54196599020288,126.89383046197699,양평1동,양평동,GRID_031_034
서울특별시 영등포구,영등포구 양평2동 ,88.0,11895.0,5947.5,6035.5,5947.5,37.54196599020288,126.89383046197699,양평2동,양평동,GRID_031_034
서울특별시 영등포구,영등포구 영등포1동 ,0.0,0.0,0.0,0.0,0.0,37.52074542623261,126.9010871095523,영등포1동,영등포동,GRID_026_035
서울특별시 용산구,용산구 이촌1동 ,100.0,8907.0,4453.5,4553.5,4453.5,37.526611524558135,126.95609693358243,이촌1동,이촌동,GRID_028_045
서울특별시 용산구,용산구 이촌2동 ,30.0,2709.0,1354.5,1384.5,1354.5,37.526611524558135,126.95609693358243,이촌2동,이촌동,GRID_028_045
서울특별시 용산구,용산구 이태원1동 ,65.0,2310.0,1155.0,1220.0,1155.0,37.541338618781936,126.99597067355921,이태원1동,이태원동,GRID_031_052
서울특별시 용산구,용산구 이태원2동 ,18.0,2528.0,1264.0,1282.0,1264.0,37.541338618781936,126.99597067355921,이태원2동,이태원동,GRID_031_052
서울특별시 은평구,은평구 갈현1동 ,30.0,5431.0,2715.5,2745.5,2715.5,37.41799899288223,126.98720914214908,갈현1동,갈현동,GRID_003_051
서울특별시 은평구,은평구 갈현2동 ,32.0,7503.0,3751.5,3783.5,3751.5,37.41799899288223,126.98720914214908,갈현2동,갈현동,GRID_003_051
서울특별시 은평구,은평구 불광1동 ,66.0,10463.0,5231.5,5297.5,5231.5,37.61263565869795,126.93943967128843,불광1동,불광동,GRID_047_042
서울특별시 은평구,은평구 불광2동 ,27.0,6484.0,3242.0,3269.0,3242.0,37.61263565869795,126.93943967128843,불광2동,불광동,GRID_047_042
서울특별시 은평구,은평구 신사1동 ,65.0,8015.0,4007.5,4072.5,4007.5,37.526222332193825,127.01585132080109,신사1동,신사동,GRID_028_056
서울특별시 은평구,은평구 신사2동 ,63.0,6210.0,3105.0,3168.0,3105.0,37.526222332193825,127.01585132080109,신사2동,신사동,GRID_028_056
서울특별시 은평구,은평구 응암1동 ,69.0,9505.0,4752.5,4821.5,4752.5,37.60085161586647,126.93401419670171,응암1동,응암동,GRID_044_041
서울특별시 은평구,은평구 응암2동 ,84.0,8786.0,4393.0,4477.0,4393.0,37.60085161586647,126.93401419670171,응암2동,응암동,GRID_044_041
서울특별시 은평구,은평구 응암3동 ,40.0,5715.0,2857.5,2897.5,2857.5,37.60085161586647,126.93401419670171,응암3동,응암동,GRID_044_041
서울특별시 종로구,종로구 창신1동 ,4.0,1197.0,598.5,602.5,598.5,37.58025857305607,127.0151204431593,창신1동,창신동,GRID_040_056
서울특별시 종로구,종로구 창신2동 ,7.0,1432.0,716.0,723.0,716.0,37.58025857305607,127.0151204431593,창신2동,창신동,GRID_040_056
서울특별시 종로구,종로구 창신3동 ,10.0,1657.0,828.5,838.5,828.5,37.58025857305607,127.0151204431593,창신3동,창신동,GRID_040_056
서울특별시 중랑구,중랑구 망우3동 ,65.0,5274.0,2637.0,2702.0,2637.0,37.606139919442526,127.11435397651877,망우3동,망우동,GRID_045_073
서울특별시 중랑구,중랑구 면목2동 ,74.0,7445.0,3722.5,3796.5,3722.5,37.588966790634494,127.10194204191839,면목2동,면목동,GRID_041_071
서울특별시 중랑구,중랑구 면목4동 ,40.0,5174.0,2587.0,2627.0,2587.0,37.588966790634494,127.10194204191839,면목4동,면목동,GRID_041_071
서울특별시 중랑구,중랑구 면목5동 ,35.0,4711.0,2355.5,2390.5,2355.5,37.588966790634494,127.10194204191839,면목5동,면목동,GRID_041_071
서울특별시 중랑구,중랑구 면목7동 ,41.0,5996.0,2998.0,3039.0,2998.0,37.588966790634494,127.10194204191839,면목7동,면목동,GRID_041_071
서울특별시 중랑구,중랑구 묵1동 ,66.0,10614.0,5307.0,5373.0,5307.0,37.619116074302454,127.08354433890742,묵1동,묵동,GRID_048_068
서울특별시 중랑구,중랑구 묵2동 ,28.0,5620.0,2810.0,2838.0,2810.0,37.619116074302454,127.08354433890742,묵2동,묵동,GRID_048_068
서울특별시 중랑구,중랑구 신내1동 ,124.0,12815.0,6407.5,6531.5,6407.5,37.61259264174488,127.11428215395756,신내1동,신내동,GRID_047_073
서울특별시 중랑구,중랑구 중화1동 ,39.0,5571.0,2785.5,2824.5,2785.5,37.60194421920133,127.08662401723882,중화1동,중화동,GRID_044_069
서울특별시 중랑구,중랑구 중화2동 ,42.0,6185.0,3092.5,3134.5,3092.5,37.60194421920133,127.08662401723882,중화2동,중화동,GRID_044_069
